{"name": "Alien E-bikes & Scooters Ltd.", "area": "Surrey", "address": "3 9530 189 St.", "onlineStore": "Yes", "url": "https://alienebikesandscooters.com", "coordinates": {"lat": 49.1758709, "lng": -122.6984493}}
{"name": "Aline Sports", "area": "Richmond", "address": "11211 Birdgeport Rd 101", "onlineStore": "Yes", "url": "https://alinesport.com", "coordinates": {"lat": 49.19226310000001, "lng": -123.0998919}}
{"name": "All Battery Duncan ltd", "area": "Victoria", "address": "5311 Trans Canada Highway", "onlineStore": "Yes", "url": "https://allbatterypowered.com", "coordinates": null}
{"name": "Alter Ego Bikes", "area": "Abbotsford", "address": "106-30799 Simpson Road", "onlineStore": "Yes", "url": "https://alteregobikes.com", "coordinates": {"lat": 49.04637719999999, "lng": -122.3704345}}
{"name": "Amped Rides", "area": "Courtenay", "address": "1235 Malahat Drive", "onlineStore": "Yes", "url": "https://amped-rides.com", "coordinates": {"lat": 49.7019712, "lng": -124.9654311}}
{"name": "AR Cycles", "area": "Mayne Island", "address": "309 Wood Dale Dr", "onlineStore": "Yes", "url": "https://ARCycles.ca", "coordinates": {"lat": 48.84384730000001, "lng": -123.3138136}}
{"name": "Armada Trading Ltd.", "area": "Surrey", "address": "13890 104Th Ave", "onlineStore": "Yes", "url": "https://armadascooters.com", "coordinates": {"lat": 49.1910401, "lng": -122.8371717}}
{"name": "Arrowsmith Mtn Cycle Ltd", "area": "Parksville", "address": "674 East Island Highway", "onlineStore": "Yes", "url": "https://arrowsmithbikes.com", "coordinates": {"lat": 49.31624009999999, "lng": -124.2896987}}
{"name": "Arrowsmith Mtn Cycle Ltd.", "area": "Nanaimo", "address": "4300 Wellington Rd", "onlineStore": "Yes", "url": "https://arrowsmithbikes.com", "coordinates": {"lat": 49.2078853, "lng": -124.0227187}}
{"name": "Barnes Harley-Davidson Langley", "area": "Langley", "address": "8859 201 Street", "onlineStore": "No", "url": "https://www.barneshd.com", "coordinates": {"lat": 49.10611300000001, "lng": -122.666068}}
{"name": "BCebike", "area": "Nanaimo", "address": "2334 Maxey Road, Nanaimo Bc V9S5V5", "onlineStore": "No", "url": "https://bcebike.ca", "coordinates": {"lat": 49.1877704, "lng": -124.0056518}}
{"name": "Beaufort Cycles", "area": "Cumberland", "address": "4640 Cumberland Rd", "onlineStore": "No", "url": "https://beaufortcycles.ca", "coordinates": {"lat": 49.6292215, "lng": -125.020889}}
{"name": "Bicicletta", "area": "Vancouver", "address": "233 West Broadway", "onlineStore": "Yes", "url": "https://bicicletta.cc", "coordinates": {"lat": 49.2633242, "lng": -123.110285}}
{"name": "Biciel", "area": "Surrey", "address": "150-16177 83 Ave", "onlineStore": "Yes", "url": "https://biciel.com", "coordinates": {"lat": 49.15386, "lng": -122.77394}}
{"name": "Bicycle Cafe Kamloops", "area": "Kamloops", "address": "1012 Victoria St", "onlineStore": "No", "url": "https://bicyclecafekamloops.com", "coordinates": {"lat": 50.6742009, "lng": -120.3155369}}
{"name": "Big Grin Bikes", "area": "Qualicum Beach", "address": "234 Second Ave W, Po Box 217", "onlineStore": "No", "url": "https://biggrinbikes.com", "coordinates": "no latLng found for this address"}
{"name": "Bike Fixated", "area": "Kelowna", "address": "124 Cambro Road", "onlineStore": "Yes", "url": "https://bikefixated.com/", "coordinates": {"lat": -37.9218317, "lng": 145.1417708}}
{"name": "Bikes & Bites", "area": "Valemount", "address": "1030 Main Street B 128", "onlineStore": "Yes", "url": "https://bikevalemount.ca ", "coordinates": "no latLng found for this address"}
{"name": "Bikes For All Cycle Store Corp", "area": "Vancouver", "address": "112 E 7Th Ave", "onlineStore": "No", "url": "https://bikesforall.ca", "coordinates": {"lat": 49.2644116, "lng": -123.1024545}}
{"name": "Biktrix Enterprises Inc.", "area": "Vancouver", "address": "2865 W Broadway", "onlineStore": "Yes", "url": "https://biktrix.ca", "coordinates": {"lat": 49.2642926, "lng": -123.1696224}}
{"name": "Biktrix Enterprises Inc. Kelowna", "area": "Kelowna", "address": "1963 Harvey Avenue", "onlineStore": "Yes", "url": "https://biktrix.ca", "coordinates": {"lat": 49.88142, "lng": -119.45152}}
{"name": "Bishop's Family Cycles", "area": "Victoria", "address": "730 Pandora Ave", "onlineStore": "Yes", "url": "https://familycycles.ca", "coordinates": {"lat": 48.4282052, "lng": -123.3637111}}
{"name": "Black Diamond Bikes", "area": "Whistler", "address": "6-4340 Sundial Crescent", "onlineStore": "No", "url": "https://blackdiamondwhistler.com", "coordinates": {"lat": 50.113851, "lng": -122.9541989}}
{"name": "Blackdog Cycle and Ski", "area": "Kimberley", "address": "175 Deer Park Ave, 175 Deer Park Ave", "onlineStore": "Yes", "url": "https://blackdogcycleandski.com", "coordinates": null}
{"name": "Black's Cycle", "area": "Comox", "address": "274 Anderton Road", "onlineStore": "Yes", "url": "https://shopblackscycle.ca", "coordinates": {"lat": 49.6765499, "lng": -124.9343773}}
{"name": "Bootleg Bike Co Ltd", "area": "Kimberley", "address": "197 Howard St", "onlineStore": "No", "url": "https://bootlegbikeco.com", "coordinates": {"lat": 49.1786535, "lng": -123.1075322}}
{"name": "Bowen eBikes", "area": "Bowen Island", "address": "431 Bowen Island Trunk Road", "onlineStore": "No", "url": "https://bowenebikes.ca", "coordinates": {"lat": 49.3795947, "lng": -123.3323688}}
{"name": "Breathe Bikes Merritt", "area": "Merritt", "address": "1960 Quilchena Ave", "onlineStore": "No", "url": "https://breathebikes.ca", "coordinates": {"lat": 49.24104790000001, "lng": -123.1499787}}
{"name": "Brentwood Cycle", "area": "Saanichton", "address": "2136 Keating Cross Rd", "onlineStore": "Yes", "url": "https://brentwoodcycle.com/", "coordinates": {"lat": 48.5657344, "lng": -123.411721}}
{"name": "BSP Bicycle Sports Pacific Inc", "area": "Surrey", "address": "19289 Langley Bypass", "onlineStore": "Yes", "url": "https://bspbikes.com", "coordinates": {"lat": 49.1060767, "lng": -122.6888585}}
{"name": "BSP Bicycle Sports Pacific Inc", "area": "Vancouver", "address": "999 Pacific Street", "onlineStore": "Yes", "url": "https://bspbikes.com", "coordinates": {"lat": 49.2769322, "lng": -123.1318606}}
{"name": "BSP Bicycle Sports Pacific Inc.", "area": "North Vancouver", "address": "1359 Main Street", "onlineStore": "Yes", "url": "https://bspbikes.com", "coordinates": {"lat": 49.2731594, "lng": -123.1004985}}
{"name": "Canada West Avionics Ltd", "area": "Delta", "address": "3- 7630 Montreal St", "onlineStore": "Yes", "url": "https://canadawestavionics.com", "coordinates": {"lat": 49.080429, "lng": -123.01139}}
{"name": "Cap's Bicycle Shop", "area": "New Westminster", "address": "A-434 E Columbia St", "onlineStore": "Yes", "url": "https://capsbicycleshop.com", "coordinates": {"lat": 49.2292312, "lng": -122.8924284}}
{"name": "Cap's Bicycle Shop - Port Moody", "area": "Port Moody", "address": "2840 St Johns St", "onlineStore": "Yes", "url": "https://www.capsbicycleshop.com", "coordinates": {"lat": 49.2769838, "lng": -122.8482093}}
{"name": "Cap's Bicycle Shop Langley", "area": "Langley", "address": "B140 6286 203 Street", "onlineStore": "Yes", "url": "https://capsbicycles.ca", "coordinates": {"lat": 49.1163461, "lng": -122.6595621}}
{"name": "Century Batteries Inc.", "area": "Abbotsford", "address": "#3 31272 Peardonville Road", "onlineStore": "No", "url": "https://centurybatteries.ca", "coordinates": {"lat": 49.0452956, "lng": -122.3580505}}
{"name": "Chainline Cycle", "area": "Kelowna", "address": "1139 Ellis Street", "onlineStore": "Yes", "url": "https://chainline.ca", "coordinates": {"lat": 48.7423399, "lng": -122.4718594}}
{"name": "Cit-E Cycles", "area": "North Vancouver", "address": "144B Chadwick Court", "onlineStore": "Yes", "url": "https://citecycles.com", "coordinates": {"lat": 49.31045109999999, "lng": -123.0830755}}
{"name": "Cit-E Cycles", "area": "Vancouver", "address": "3155 West Broadway", "onlineStore": "Yes", "url": "https://citecycles.com", "coordinates": {"lat": 49.2643278, "lng": -123.175335}}
{"name": "Cit-E Cycles - Victoria", "area": "Victoria", "address": "1006 Hillside Ave", "onlineStore": "Yes", "url": "https://citecycles.com", "coordinates": {"lat": 48.4395998, "lng": -123.358764}}
{"name": "Cit-E Cycles Inc", "area": "Langley ", "address": "19981 96 Avenue", "onlineStore": "Yes", "url": "https://citecycles.com", "coordinates": {"lat": 49.1773636, "lng": -122.668376}}
{"name": "Cit-E Cycles Inc.", "area": "North Vancouver", "address": "Unit 60 - 221 West Esplanade", "onlineStore": "Yes", "url": "https://www.citecycles.com/", "coordinates": {"lat": 49.3123573, "lng": -123.0836622}}
{"name": "Cit-E-Cycles", "area": "North Vancouver", "address": "221 Esplanade W #60", "onlineStore": "Yes", "url": "https://www.citecycles.com", "coordinates": {"lat": 49.3123573, "lng": -123.0836622}}
{"name": "Citecycles E-Bikes", "area": "North Vancouver", "address": "103 - 1346 Marine Dr.", "onlineStore": "Yes", "url": "https://citecycles.com", "coordinates": {"lat": 49.3240784, "lng": -123.1116035}}
{"name": "Citecycles Electric Bikes", "area": "Port Moody", "address": "3030 St Johns St.", "onlineStore": "Yes", "url": "https://citecycles.com", "coordinates": {"lat": 49.276944, "lng": -122.8441116}}
{"name": "Cit-E-Cycles Inc", "area": "Victoria", "address": "100-2612 Bridge St", "onlineStore": "Yes", "url": "https://citecycles.com", "coordinates": {"lat": 48.43644820000001, "lng": -123.3733354}}
{"name": "Citrus Cycles Ltd.", "area": "Chemainus", "address": "9778 Willow Street", "onlineStore": "Yes", "url": "https://CitrusCycles.ca", "coordinates": {"lat": 48.9225845, "lng": -123.7181015}}
{"name": "Cloud eBikes", "area": "Port Coquitlam", "address": "B-3610 Westwood", "onlineStore": "Yes", "url": "https://cloudebikes.ca", "coordinates": "no latLng found for this address"}
{"name": "Coal City Cycles", "area": "Nanaimo", "address": "1825 Bowen Rd #104", "onlineStore": "Yes", "url": "https://coalcitycycles.com", "coordinates": {"lat": 49.1830643, "lng": -123.9824205}}
{"name": "Coast E-Bikes", "area": "Powell River", "address": "101-4400 Marine Ave", "onlineStore": "No", "url": "https://coast-ebikes.square.site", "coordinates": {"lat": 49.8348007, "lng": -124.5275053}}
{"name": "Coastal Culture Sports", "area": "Whistler", "address": "Unit C-D 2010 London Lane", "onlineStore": "No", "url": "https://coastalculturesports.com", "coordinates": {"lat": 50.0965897, "lng": -122.9895924}}
{"name": "Coastal Cycles", "area": "Victoria", "address": "1-1612 Island Highway", "onlineStore": "No", "url": "https://coastalcycle.com", "coordinates": {"lat": 48.455411, "lng": -123.4611231}}
{"name": "Columbia Cycle & Ski", "area": "Invermere", "address": "375 Laurier St", "onlineStore": "No", "url": "https://columbiacycle.ca", "coordinates": {"lat": 49.2749144, "lng": -122.7182704}}
{"name": "Comor Sports", "area": "Vancouver", "address": "1787 West 4Th Ave.", "onlineStore": "Yes", "url": "https://comorsports.com", "coordinates": {"lat": 49.2681598, "lng": -123.1452966}}
{"name": "Comor Sports North Vancouver", "area": "North Vancouver", "address": "1445 Main Street", "onlineStore": "Yes", "url": "https://comorsports.com", "coordinates": {"lat": 49.3053847, "lng": -123.0333319}}
{"name": "Comor Sports Whistler", "area": "Whistler", "address": "129-4338 Main Street, 129-4338 Main St", "onlineStore": "Yes", "url": "https://comorsports.com", "coordinates": "no latLng found for this address"}
{"name": "Comox Bike Company", "area": "Comox", "address": "#3-1841 Comox Ave.", "onlineStore": "Yes", "url": "https://comoxbikeco.ca", "coordinates": {"lat": 49.6740606, "lng": -124.9289316}}
{"name": "Corsa Cycles", "area": "Squamish", "address": "38123 Cleveland Avenue", "onlineStore": "Yes", "url": "https://dunbarcycles.com", "coordinates": {"lat": 49.7005674, "lng": -123.1521856}}
{"name": "Cove Bike Shop Ltd.", "area": "North Vancouver", "address": "1395 Main Street", "onlineStore": "No", "url": "https://covebike.com", "coordinates": {"lat": 49.273141, "lng": -123.100499}}
{"name": "Cowichan Cycles", "area": "Duncan", "address": "2692 James Street", "onlineStore": "Yes", "url": "https://cowichancycles.com", "coordinates": {"lat": 48.78195299999999, "lng": -123.7041161}}
{"name": "Cranky's Bike Shop", "area": "Aldergrove", "address": "2961 272 Street", "onlineStore": "No", "url": "https://crankysbikeshop.com", "coordinates": {"lat": 49.0569368, "lng": -122.4710683}}
{"name": "Cycle BC Rentals & Tours", "area": "Vancouver", "address": "73 6Th Ave East", "onlineStore": "No", "url": "https://cycleb.ca", "coordinates": {"lat": 49.26586529999999, "lng": -123.1031112}}
{"name": "Cycle City Bike Shop", "area": "Vancouver", "address": "646 Hornby St.", "onlineStore": "Yes", "url": "https://shop.cyclevancouver.com", "coordinates": {"lat": 49.2843053, "lng": -123.1190684}}
{"name": "Cycle For Fun", "area": "Grand Forks", "address": "6063 19Th St. Mail/ Po Box 2842", "onlineStore": "Yes", "url": "https://cycleforfun.ca", "coordinates": "no latLng found for this address"}
{"name": "Cycle Logic", "area": "Kamloops", "address": "222 Victoria Street", "onlineStore": "Yes", "url": "https://cyclelogicbikes.com", "coordinates": {"lat": 48.8884517, "lng": -123.5068414}}
{"name": "Cycle Logic", "area": "Prince George", "address": "1443 3Rd Ave", "onlineStore": "Yes", "url": "https://cyclelogicbikes.com", "coordinates": {"lat": 49.2675736, "lng": -123.1463573}}
{"name": "Cycle Logic", "area": "Quesnel", "address": "349 Reid Street", "onlineStore": "Yes", "url": "https://cyclelogicbikes.com", "coordinates": {"lat": 49.2432195, "lng": -123.0367722}}
{"name": "Cycle Logic", "area": "Williams Lake", "address": "1024 Broadway Ave", "onlineStore": "No", "url": "https://cyclelogicbikes.com", "coordinates": {"lat": 49.2632096, "lng": -123.1273391}}
{"name": "Cycle Logic Revelstoke", "area": "Revelstoke", "address": "709 Victoria Rd", "onlineStore": "No", "url": "https://cyclelogicbikes.com", "coordinates": {"lat": 49.15515600000001, "lng": -123.935944}}
{"name": "Cycle Therapy Bicycles", "area": "Duncan", "address": "102-360 Duncan Street", "onlineStore": "Yes", "url": "https://cycletherapy.ca", "coordinates": {"lat": 48.7778798, "lng": -123.7061678}}
{"name": "Cyclepath Kelowna Inc.", "area": "Kelowna", "address": "2169 Springfield Road", "onlineStore": "Yes", "url": "https://cyclepathkelowna.com", "coordinates": {"lat": 49.8769232, "lng": -119.4407288}}
{"name": "Cycles West", "area": "Victoria", "address": "100A Burnside Rd", "onlineStore": "No", "url": "https://cycleswest.ca", "coordinates": {"lat": 48.4509846, "lng": -123.3872358}}
{"name": "Cycology Bikes", "area": "Castlegar", "address": "926 Columbia Ave.`", "onlineStore": "Yes", "url": "https://cycologybikes.ca", "coordinates": {"lat": 49.2415884, "lng": -122.7754604}}
{"name": "CyQle", "area": "Gabriola Island", "address": "375 Armson Rd", "onlineStore": "No", "url": "https://cyqle.ca", "coordinates": {"lat": 49.18604560000001, "lng": -123.8554568}}
{"name": "Denman Bikes on Main", "area": "Vancouver", "address": "2607 Main Street", "onlineStore": "No", "url": "https://denmanbikeshop.com", "coordinates": {"lat": 49.2618042, "lng": -123.1012528}}
{"name": "Derailed Sports", "area": "Golden", "address": "509 Main Street, Suite 101", "onlineStore": "No", "url": "https://derailedsports.com", "coordinates": "no latLng found for this address"}
{"name": "District bicycle company", "area": "Kamloops", "address": "1180 Columbia Street West", "onlineStore": "Yes", "url": "https://districtbicyclecompany.com", "coordinates": {"lat": 50.6660803, "lng": -120.3557786}}
{"name": "Dodge City Cycles LTD", "area": "Cumberland", "address": "2705 Dunsmuir Ave", "onlineStore": "Yes", "url": "https://dodgecitycycles.com", "coordinates": {"lat": 49.6187373, "lng": -125.0297699}}
{"name": "Dost Bikes Inc.", "area": "Port Coquitlam", "address": "1120-577 Nicola Ave", "onlineStore": "Yes", "url": "https://dostbikes.com", "coordinates": {"lat": 49.2553732, "lng": -122.7309926}}
{"name": "Double O Bikes", "area": "Osoyoos", "address": "8905 Main Street", "onlineStore": "No", "url": "https://doubleobikes.com", "coordinates": {"lat": 49.2457108, "lng": -123.101237}}
{"name": "Dropbar Cycles", "area": "Squamish", "address": "5-38936 Queens Way", "onlineStore": "No", "url": "https://liv-giant-vancouver.shoplightspeed.com", "coordinates": {"lat": 49.71933, "lng": -123.15419}}
{"name": "Dunbar Cycles", "area": "Vancouver", "address": "622 East Broadway", "onlineStore": "Yes", "url": "https://dunbarcycles.com", "coordinates": {"lat": 49.2623393, "lng": -123.0903996}}
{"name": "Ebike Canada Stores Inc.", "area": "Delta", "address": "11A 7228 Progress Way", "onlineStore": "Yes", "url": "https://ebikecanada.com", "coordinates": {"lat": 49.13283879999999, "lng": -123.0227172}}
{"name": "Ebike Universe Vancouver", "area": "Vancouver", "address": "160 E Cordova St.", "onlineStore": "Yes", "url": "https://ebikeuniverse.com", "coordinates": {"lat": 49.2821845, "lng": -123.1005296}}
{"name": "EBikeBC", "area": "Burnaby", "address": "1685 Ingleton Avenue", "onlineStore": "Yes", "url": "https://ebikebc.com", "coordinates": {"lat": 49.269551, "lng": -123.0189873}}
{"name": "e-Cycle Victoria", "area": "Victoria", "address": "2807 Tudor Ave", "onlineStore": "Yes", "url": "https://e-cyclevictoria.ca", "coordinates": {"lat": 48.4562588, "lng": -123.283606}}
{"name": "Electric Fat Bike Company", "area": "Coldstream", "address": "68 North Aberdeen Road", "onlineStore": "Yes", "url": "https://electricfatbikecompany.com", "coordinates": {"lat": 50.2418876, "lng": -119.2292053}}
{"name": "Elemental Cycle", "area": "Invermere", "address": "102-905 7Th Ave", "onlineStore": "No", "url": "https://elementalcycle.com", "coordinates": "no latLng found for this address"}
{"name": "Elk Canyon Archery & Outdoors", "area": "Chetwynd", "address": "5208 North Access Road", "onlineStore": "Yes", "url": "https://elkcanyon.ca", "coordinates": {"lat": 55.6969739, "lng": -121.634643}}
{"name": "Elphinstone Cycles", "area": "Gibsons", "address": "#104-1058 Gibsons Way", "onlineStore": "No", "url": "https://elphicycles.com", "coordinates": {"lat": 49.4069724, "lng": -123.5283531}}
{"name": "Elphinstone Cycles", "area": "Sechelt", "address": "#102-5641 Cowrie Street", "onlineStore": "No", "url": "https://elphicycles.com", "coordinates": {"lat": 49.4721839, "lng": -123.7552653}}
{"name": "EnergyOne(SLANE) Ebike", "area": "Nanaimo", "address": "30 - 6631 Island Highway N", "onlineStore": "Yes", "url": "https://energyone.ca", "coordinates": {"lat": 49.2349895, "lng": -124.0456015}}
{"name": "EnergyOne(SLANE) Ebike", "area": "Victoria", "address": "342 - 3147 Douglas Street", "onlineStore": "Yes", "url": "https://energyone.ca", "coordinates": {"lat": 48.4468811, "lng": -123.3691187}}
{"name": "E-Nic Ebike", "area": "Vancouver", "address": "780 Denman Street", "onlineStore": "No", "url": "https://e-nic.ca", "coordinates": {"lat": 49.2916234, "lng": -123.134878}}
{"name": "Ernie's Sports Expert", "area": "Fort St. John", "address": "3020-9600 93 Ave", "onlineStore": "Yes", "url": "https://ernies.ca", "coordinates": {"lat": 56.2368666, "lng": -120.8422162}}
{"name": "eTrikes Canada", "area": "Kimberley", "address": "196 Spokane St", "onlineStore": "Yes", "url": "https://etrikescanada.com", "coordinates": {"lat": 48.6969816, "lng": -122.4937641}}
{"name": "EVO Village Sports", "area": "Whistler", "address": "4341 Village Lane #110", "onlineStore": "No", "url": "https://evo.com", "coordinates": {"lat": 50.114099, "lng": -122.954885}}
{"name": "Evolution Whistler", "area": "Whistler", "address": "#8-4122 Village Green", "onlineStore": "Yes", "url": "https://evolutionwhistler.com", "coordinates": {"lat": 50.1140832, "lng": -122.956729}}
{"name": "Evolve Sport & Cycle", "area": "Prince George", "address": "2299 Westwood Drive", "onlineStore": "Yes", "url": "https://evolvesportandcycle.com", "coordinates": {"lat": 49.3560978, "lng": -123.2503625}}
{"name": "Experience Cycling Ltd.", "area": "Duncan", "address": "482 Trans Canada Highway", "onlineStore": "Yes", "url": "https://experiencecycling.ca", "coordinates": {"lat": 49.0656474, "lng": -122.2605272}}
{"name": "Fairfield Bicycle Shop Ltd.", "area": "Victoria", "address": "390 Moss Street", "onlineStore": "Yes", "url": "https://fairfieldbicycle.com", "coordinates": {"lat": 48.4150624, "lng": -123.3490389}}
{"name": "Family of Riders Bike Co", "area": "Nanaimo", "address": "2129 Bowen Road", "onlineStore": "No", "url": "https://www.forbikes.ca", "coordinates": {"lat": 49.19022810000001, "lng": -123.9905038}}
{"name": "Fanatykco Ski & Cycle", "area": "Whistler", "address": "6-4433 Sundial Place", "onlineStore": "Yes", "url": "https://fanatykco.com", "coordinates": {"lat": 50.1149403, "lng": -122.9550262}}
{"name": "Far Out Gear Rentals Inc.", "area": "Radium Hot Springs", "address": "7514 Main St East", "onlineStore": "No", "url": "https://rentfarout.com", "coordinates": {"lat": 50.62116229999999, "lng": -116.0705149}}
{"name": "Fineline Bike Shop", "area": "Whistler", "address": "3-1040 Millar Creek Road", "onlineStore": "No", "url": "https://finelinewhistler.net", "coordinates": {"lat": 50.08745949999999, "lng": -123.0415978}}
{"name": "Forest Power Sports", "area": "Prince George", "address": "120-988 Great St", "onlineStore": "No", "url": "https://www.forestpowersports.com", "coordinates": {"lat": 53.8855502, "lng": -122.7456894}}
{"name": "Fort St Cycle", "area": "Victoria", "address": "1025 Fort Street Cycle", "onlineStore": "No", "url": "https://fortstreetcycle.ca", "coordinates": {"lat": 48.4234722, "lng": -123.3558271}}
{"name": "Freedom Bike Shop", "area": "Penticton", "address": "533 Main St.", "onlineStore": "Yes", "url": "https://freedombikeshop.com", "coordinates": null}
{"name": "Fresh Air Experience", "area": "Kelowna", "address": "555 Groves Ave. Or 1656 Dilworth Dr.", "onlineStore": "Yes", "url": "https://freshair.ca", "coordinates": {"lat": 49.8631087, "lng": -119.4901409}}
{"name": "FSJ Hi Performance Motor Sports (2000) Ltd.", "area": "Fort St John", "address": "11216 100 Avenue", "onlineStore": "No", "url": "https://www.fsjhi-performance.com", "coordinates": {"lat": 49.18466009999999, "lng": -122.8968452}}
{"name": "Fuca Cycles Ltd", "area": "Sooke", "address": "5871 Sooke Road", "onlineStore": "No", "url": "https://fucacycles.ca", "coordinates": {"lat": 48.3898783, "lng": -123.6785638}}
{"name": "Full Charge Cycles", "area": "Kelowna", "address": "102-540 Groves Ave", "onlineStore": "No", "url": "https://kelownaeride.com", "coordinates": {"lat": 49.8635635, "lng": -119.4903208}}
{"name": "Funhogz Gear Exchange", "area": "Cranbrook", "address": "917 Kootenay St N, Cranbrook, Bc", "onlineStore": "No", "url": "https://funhogz.com", "coordinates": {"lat": 49.5209943, "lng": -115.7567343}}
{"name": "GBike Power Canada", "area": "Prince Rupert", "address": "629 Taylor Street", "onlineStore": "Yes", "url": "https://gbike.store", "coordinates": null}
{"name": "Gearhub Sports", "area": "Fernie", "address": "401 1st Avenue", "onlineStore": "Yes", "url": "https://gearhub.ca", "coordinates": {"lat": 40.7373379, "lng": -73.97855179999999}}
{"name": "Gerick Cycle & Sport Ltd.", "area": "Trail", "address": "930 Rossland Ave.", "onlineStore": "Yes", "url": "https://gerick.ca", "coordinates": {"lat": 49.2752421, "lng": -123.0452294}}
{"name": "Gerick Cycle and Ski", "area": "Nelson", "address": "702 Baker Street", "onlineStore": "Yes", "url": "https://gericks.com", "coordinates": {"lat": 48.7807072, "lng": -122.4818951}}
{"name": "Gerick Sports", "area": "Cranbrook", "address": "320 Cranbrook St N", "onlineStore": "No", "url": "https://gericksports.com", "coordinates": {"lat": 49.5157216, "lng": -115.7638143}}
{"name": "Giant Langley", "area": "Langley", "address": "118-20353 64Th Ave", "onlineStore": "Yes", "url": "https://giantlangley.com", "coordinates": {"lat": 49.1192882, "lng": -122.6588459}}
{"name": "Giant Vancouver", "area": "Vancouver", "address": "1717 West 4Th Ave", "onlineStore": "Yes", "url": "https://giantvancouver.com", "coordinates": {"lat": 49.2682155, "lng": -123.1437239}}
{"name": "Giant Victoria", "area": "Victoria", "address": "631 Yates Street, Giant Victoria", "onlineStore": "Yes", "url": "https://giantvictoria.com", "coordinates": {"lat": 48.4263346, "lng": -123.3661042}}
{"name": "Giant White Rock", "area": "Surrey", "address": "60-16041 24 Ave", "onlineStore": "Yes", "url": "https://giantwhiterock.com", "coordinates": {"lat": 49.0462532, "lng": -122.7775578}}
{"name": "GIO", "area": "Vancouver", "address": "210 W Broadway", "onlineStore": "Yes", "url": "https://gioretail.ca", "coordinates": {"lat": 49.2628683, "lng": -123.1098392}}
{"name": "Goldstream Bicycles & E-Bikes", "area": "Victoria", "address": "694 Goldstream Ave, Unit 116", "onlineStore": "No", "url": "https://goldstreambicycles.ca", "coordinates": {"lat": 48.44730250000001, "lng": -123.4942788}}
{"name": "Greater Vancouver Powersports", "area": "Langley", "address": "9517 200Th", "onlineStore": "No", "url": "https://gvps.ca", "coordinates": {"lat": 49.1759003, "lng": -122.6692899}}
{"name": "Green Light Cycle Ltd.", "area": "Burnaby", "address": "6909 Antrim Ave", "onlineStore": "Yes", "url": "https://greenlightcycle.com", "coordinates": {"lat": 49.2206656, "lng": -122.9853577}}
{"name": "Green Man Bikes", "area": "Langford", "address": "3202 A Happy Valley Road", "onlineStore": "No", "url": "https://greenmanbikes.com", "coordinates": {"lat": 48.4836377, "lng": -122.6116054}}
{"name": "Griffins Source for Sports", "area": "Dawson Creek", "address": "1120-102 Avenue", "onlineStore": "No", "url": "https://sourceforsports.ca/pages/griffin-source-for-sports-dawson-creek", "coordinates": {"lat": 49.1877484, "lng": -122.8154367}}
{"name": "Grin Technologies (No Conversion Kits Qualify)", "area": "Vancouver", "address": "1290 Odlum Drive", "onlineStore": "Yes", "url": "https://ebikes.ca/shop/full-ebikes.html", "coordinates": {"lat": 49.2733443, "lng": -123.0756046}}
{"name": "Head Over Wheels Cycle & Sport", "area": "Qualicum Beach", "address": "130 Second Avenue West", "onlineStore": "Yes", "url": "https://headoverwheelscycle.com", "coordinates": "no latLng found for this address"}
{"name": "Higher Ground Sports", "area": "Golden", "address": "501 9th Ave N", "onlineStore": "No", "url": "https://www.highergroundsports.ca", "coordinates": "no latLng found for this address"}
{"name": "Hill Eater E-Bikes Ltd.", "area": "Salt Spring Island", "address": "235 Richard Flack Rd.", "onlineStore": "Yes", "url": "https://hilleater.ca", "coordinates": {"lat": 48.90357359999999, "lng": -123.5431375}}
{"name": "Hyper Toys", "area": "Dawson Creek", "address": "701 Hwy 2", "onlineStore": "No", "url": "https://hypertoys.ca", "coordinates": null}
{"name": "International Motorsports", "area": "Langley", "address": "100-9420 200A Street", "onlineStore": "No", "url": "https://internationalmotorsports.com", "coordinates": {"lat": 49.1734155, "lng": -122.6658367}}
{"name": "Island Cycle", "area": "Parksville", "address": "114 Hirst Ave East", "onlineStore": "Yes", "url": "https://icyclebc.com", "coordinates": {"lat": 49.3192374, "lng": -124.3119181}}
{"name": "Island Cycle", "area": "Quathiaski Cove", "address": "615 Taku Rd.", "onlineStore": "No", "url": "https://quadraislandcycle.com", "coordinates": null}
{"name": "Jack's Cycle", "area": "Chilliwack", "address": "1-45735 Thomas Rd.", "onlineStore": "No", "url": "https://jackscycle.ca", "coordinates": {"lat": 49.1069088, "lng": -121.9588764}}
{"name": "JK's Bicycleitis", "area": "Victoria", "address": "1623 Bay Street", "onlineStore": "No", "url": "https://bicycle-itis.com", "coordinates": {"lat": 48.4338987, "lng": -123.3345435}}
{"name": "JK's Bicycleitis Inc.", "area": "Victoria", "address": "1814 Oak Bay Avenue", "onlineStore": "No", "url": "https://bicycle-itis.com", "coordinates": {"lat": 48.4266953, "lng": -123.3294824}}
{"name": "JO-E Cycles", "area": "Vancouver", "address": "768 Denamn St", "onlineStore": "Yes", "url": "https://jo-ebikes.ca", "coordinates": {"lat": 49.2917891, "lng": -123.1347006}}
{"name": "Jubilee Cycle", "area": "Burnaby", "address": "4816 Imperial Street", "onlineStore": "No", "url": "https://jubileecycle.com", "coordinates": {"lat": 49.22179329999999, "lng": -122.9949655}}
{"name": "JV Bike", "area": "Vancouver", "address": "929 Expo Blvd.", "onlineStore": "Yes", "url": "https://jvbike.com", "coordinates": {"lat": 49.275589, "lng": -123.115389}}
{"name": "Kamloops E Ride", "area": "Kamloops", "address": "367 St Paul Street", "onlineStore": "No", "url": "https://kelownaeride.com", "coordinates": {"lat": 48.76172529999999, "lng": -122.4518745}}
{"name": "Kelowna Cycle", "area": "Kelowna", "address": "103-2949 Pandosy Street", "onlineStore": "Yes", "url": "https://kelownacycle.ca", "coordinates": {"lat": 49.8641729, "lng": -119.4905909}}
{"name": "Kelowna E Ride Inc.", "area": "Kelowna", "address": "901 Ellis Street", "onlineStore": "No", "url": "https://kelownaeride.com", "coordinates": null}
{"name": "Kelowna E-Kruise", "area": "Kelowna", "address": "103-1195 Richter St", "onlineStore": "No", "url": "https://ekruise.com", "coordinates": {"lat": 49.89406, "lng": -119.48816}}
{"name": "Kinetik Cycles", "area": "Coquitlam", "address": "102-2560 Barnet Hwy", "onlineStore": "Yes", "url": "https://kinetikcycles.com", "coordinates": {"lat": 49.2774779, "lng": -122.8206368}}
{"name": "Koops Bike Shop", "area": "Prince George", "address": "1659 Nicholson St", "onlineStore": "No", "url": "https://koopsbikeshop.ca", "coordinates": {"lat": 53.90878319999999, "lng": -122.7873904}}
{"name": "Krafty Bikes Ltd.", "area": "Vernon", "address": "1013 Kalamalka Lake Road", "onlineStore": "Yes", "url": "https://kraftybikes.com", "coordinates": {"lat": 50.2493772, "lng": -119.2618535}}
{"name": "Krusty's Bicycles Ltd.", "area": "Richmond", "address": "135-8460 Alexandra Road", "onlineStore": "Yes", "url": "https://krustysbicycles.com", "coordinates": {"lat": 49.1777847, "lng": -123.1297249}}
{"name": "Lake Country Cycle", "area": "Lake Country", "address": "3175 Woodsdale Rd", "onlineStore": "Yes", "url": "https://lakecountrycycle.ca", "coordinates": {"lat": 50.0490296, "lng": -119.4037687}}
{"name": "Lakeside Bike Co", "area": "Invermere", "address": "#3-1005 7Th Ave Box 250", "onlineStore": "No", "url": "https://lakesidebikeco.com", "coordinates": "no latLng found for this address"}
{"name": "Lankeleisi Bike Inc.", "area": "Surrey", "address": "17665 66A Ave #609", "onlineStore": "Yes", "url": "https://lankeleisicanada.com", "coordinates": {"lat": 49.1238184, "lng": -122.7314211}}
{"name": "Life Cycles", "area": "Abbotsford", "address": "1-1707 Salton Road", "onlineStore": "Yes", "url": "https://lifecyclesbikes.com", "coordinates": {"lat": 49.033289, "lng": -122.2880312}}
{"name": "Lynn Valley Bikes", "area": "North Vancouver", "address": "3028 Mountain Highway", "onlineStore": "Yes", "url": "https://www.lynnvalleybikes.com", "coordinates": {"lat": 49.336507, "lng": -123.037697}}
{"name": "Mactalla Cycles", "area": "Vancouver", "address": "2626 E Hastings St", "onlineStore": "No", "url": "https://mactallacycles.ca", "coordinates": {"lat": 49.28102699999999, "lng": -123.051263}}
{"name": "Maple Ridge Cycle Ltd", "area": "Maple Ridge", "address": "11771B Fraser Street", "onlineStore": "No", "url": "https://mapleridgecycle.ca", "coordinates": {"lat": 49.2164677, "lng": -122.6004361}}
{"name": "Martin Motor Sports Ltd.", "area": "Kelowna", "address": "2330 Enterprise Way", "onlineStore": "Yes", "url": "https://martinmotorsports.ca", "coordinates": null}
{"name": "Marty's Mountain Cycle", "area": "Victoria", "address": "1-1258 Esquimalt Rd", "onlineStore": "No", "url": "https://martysmountaincycle.com", "coordinates": {"lat": 48.4301708, "lng": -123.4160317}}
{"name": "Masset Bikes Inc.", "area": "Masset", "address": "1648 Orr St", "onlineStore": "Yes", "url": "https://massetbikes.com", "coordinates": "no latLng found for this address"}
{"name": "MAXBIK NEW ENERGY LTD.", "area": "Surrey", "address": "104 15252 - 32Nd Avenue", "onlineStore": "Yes", "url": "https://maxbik.com", "coordinates": {"lat": 49.0607896, "lng": -122.7986883}}
{"name": "McBike and Sport", "area": "Smithers", "address": "1191 Main Street Box 4016", "onlineStore": "No", "url": "https://mcbike.ca", "coordinates": null}
{"name": "McSporties", "area": "Sun Peaks", "address": "3180 Creekside Way", "onlineStore": "Yes", "url": "https://mcsporties.com", "coordinates": {"lat": 50.88423659999999, "lng": -119.8828256}}
{"name": "Metro Vancouver E-Bike", "area": "Vancouver", "address": "701 W Georgia St", "onlineStore": "Yes", "url": "https://metrovancouverebike.ca", "coordinates": {"lat": 49.2846907, "lng": -123.1155572}}
{"name": "Modmo", "area": "Vancouver", "address": "941 Homer Street", "onlineStore": "Yes", "url": "https://modmo.ca", "coordinates": {"lat": 49.2779856, "lng": -123.1194656}}
{"name": "Mountain City Cycle", "area": "Courtenay", "address": "120 5Th St", "onlineStore": "Yes", "url": "https://mountaincitycycles.com", "coordinates": "no latLng found for this address"}
{"name": "Mountain Lifestyle Outlets", "area": "Kelowna", "address": "115 Hwy 33", "onlineStore": "Yes", "url": "https://mountainlifestyle.ca", "coordinates": {"lat": 49.88882539999999, "lng": -119.3874436}}
{"name": "Mr. eBike Inc.", "area": "Victoria", "address": "1503-1020 View Street", "onlineStore": "Yes", "url": "https://mrebike.com", "coordinates": {"lat": 48.4248213, "lng": -123.3557414}}
{"name": "No Limits Motorsports", "area": "Squamish", "address": "38921 Queens Way", "onlineStore": "No", "url": "https://nolimitsmotorsports.com", "coordinates": {"lat": 49.716714, "lng": -123.1571815}}
{"name": "Norco Bikes - North Shore", "area": "North Vancouver", "address": "100 - 400 Brooksbank Ave", "onlineStore": "Yes", "url": "https://www.norconorthshore.com", "coordinates": {"lat": 49.3096002, "lng": -123.0398068}}
{"name": "Norkam Lock & Cycle", "area": "Kamloops", "address": "178 Tranquille Rd.", "onlineStore": "No", "url": "https://norkamlockandcycle.com", "coordinates": {"lat": 50.6850835, "lng": -120.3545614}}
{"name": "North eBike Incorporated", "area": "Maple Ridge", "address": "22465 North Ave", "onlineStore": "Yes", "url": "https://northebike.com", "coordinates": {"lat": 49.2160468, "lng": -122.5998667}}
{"name": "North island bike shed", "area": "Port Mcneill", "address": "3C 311 Hemlock Street", "onlineStore": "Yes", "url": "https://nibikeshed.weebly.com", "coordinates": "no latLng found for this address"}
{"name": "North Kootenay Bike Shop", "area": "Kaslo", "address": "423 Front Street", "onlineStore": "No", "url": "https://NKBS.ca", "coordinates": null}
{"name": "North Park Bike Shop", "area": "Victoria", "address": "1833 Cook Street", "onlineStore": "No", "url": "https://northparkbikeshop.com", "coordinates": {"lat": 48.4300684, "lng": -123.3525994}}
{"name": "North Shore Bike Shop", "area": "North Vancouver", "address": "1831 Lonsdale Ave", "onlineStore": "Yes", "url": "https://northshorebikeshop.net", "coordinates": {"lat": 49.3257319, "lng": -123.0724875}}
{"name": "North Shore Road Bike", "area": "North Vancouver", "address": "1191 West 15Th Street", "onlineStore": "Yes", "url": "https://northshoreroadbike.com", "coordinates": {"lat": 49.3221362, "lng": -123.09715}}
{"name": "Northstar Bicycle Company", "area": "Cranbrook", "address": "1900 Cranbrook Street North", "onlineStore": "Yes", "url": "https://northstarbicycle.ca", "coordinates": {"lat": 49.5295299, "lng": -115.7467626}}
{"name": "Oak Bay Bicycle Shop", "area": "Victoria", "address": "1990 B", "onlineStore": "Yes", "url": "https://oakbaybikes.com", "coordinates": null}
{"name": "Obsession E-Bikes", "area": "North Vancouver", "address": "382 East Eplanade", "onlineStore": "Yes", "url": "https://obsessionbikes.com", "coordinates": "no latLng found for this address"}
{"name": "OHM Cycles Canada Ltd.", "area": "North Vancouver", "address": "103 - 930 Harbourside Drive", "onlineStore": "Yes", "url": "https://ohmcycles.com", "coordinates": {"lat": 49.3149348, "lng": -123.0998178}}
{"name": "Olympia Cycle And Ski", "area": "Vernon", "address": "2211 48Th Avenue", "onlineStore": "Yes", "url": "https://cycleandski.com", "coordinates": {"lat": 49.2265568, "lng": -123.0618527}}
{"name": "OMG Smart Living", "area": "Vancouver", "address": "#101-1520 Rand Ave", "onlineStore": "Yes", "url": "https://omgsmartliving.com", "coordinates": {"lat": 49.2045745, "lng": -123.1418262}}
{"name": "Outbound Cycle", "area": "West Kelowna", "address": "3011 Louie Dr. #101-", "onlineStore": "No", "url": "https://outboundcycle.com", "coordinates": null}
{"name": "OutSpokin Bike Shop", "area": "Salt Spring Island", "address": "102 Seaview Ave", "onlineStore": "Yes", "url": "https://outspokinbikeshop.com", "coordinates": {"lat": 48.8519855, "lng": -123.500837}}
{"name": "Pedal Motion Cycles", "area": "Richmond", "address": "145-13500 Maycrest Way", "onlineStore": "Yes", "url": "https://www.pedalmotioncycles.ca", "coordinates": {"lat": 49.1805726, "lng": -123.0723806}}
{"name": "Pedal Your World Sports Ltd.", "area": "Campbell River", "address": "B7-465 Merecroft Rd", "onlineStore": "No", "url": "https://Pedalyourworld.com", "coordinates": {"lat": 49.9995588, "lng": -125.2454415}}
{"name": "PedalSport", "area": "Chilliwack", "address": "1-9020 Young Road", "onlineStore": "Yes", "url": "https://pedalsport.com", "coordinates": {"lat": 49.1659803, "lng": -121.9522144}}
{"name": "Pedego", "area": "Penticton", "address": "151 Cossar Ave Unit 101", "onlineStore": "No", "url": "http://pedegopenticton.ca", "coordinates": "no latLng found for this address"}
{"name": "Pedego Canada", "area": "Nelson", "address": "514 Hall Street", "onlineStore": "Yes", "url": "https://pedegoelectricbikes.ca", "coordinates": null}
{"name": "Pedego Delta", "area": "Delta", "address": "#106-6388 Market Avenue", "onlineStore": "No", "url": "https://pedegoelectricbikes.ca", "coordinates": {"lat": 49.0073419, "lng": -123.0467267}}
{"name": "Pedego Electric Bikes Victoria", "area": "Victoria", "address": "701 Belleville St", "onlineStore": "No", "url": "http://pedegovictoria.ca", "coordinates": {"lat": 48.4198634, "lng": -123.3654568}}
{"name": "Pedego Nanaimo", "area": "Nanaimo", "address": "101 - 5200 Dublin Way", "onlineStore": "No", "url": "http://pedegonanaimo.ca", "coordinates": {"lat": 49.2169521, "lng": -124.0330726}}
{"name": "Pedego Oyama", "area": "Lake Country", "address": "15686 Pelmewash Parkway", "onlineStore": "No", "url": "https://pedegoelectricbikes.ca", "coordinates": {"lat": 50.1109659, "lng": -119.3881241}}
{"name": "Play it Again Sports", "area": "Kelowna", "address": "1778 Baron Rd", "onlineStore": "Yes", "url": "https://Playitagainsports.com", "coordinates": {"lat": 48.6650431, "lng": -123.6505721}}
{"name": "PR Industries Ltd - eRanger Bikes", "area": "Burnaby", "address": "6671 Woodvale", "onlineStore": "Yes", "url": "https://www.erangerbikes.com/", "coordinates": {"lat": 49.265863, "lng": -122.9635128}}
{"name": "Premium Mountain Rental Ltd.", "area": "Whistler", "address": "114-4154 Village Green", "onlineStore": "Yes", "url": "https://premiummountain.ca", "coordinates": {"lat": 50.11406909999999, "lng": -122.9557069}}
{"name": "ProMechBC", "area": "Vancouver", "address": "1868 Glen Dr", "onlineStore": "Yes", "url": "https://promechbc.com", "coordinates": {"lat": 49.2683796, "lng": -123.0806155}}
{"name": "R.A.D. Cycles", "area": "Vancouver", "address": "701 E Broadway Ave", "onlineStore": "No", "url": "https://radcyclesinc.com", "coordinates": {"lat": 49.2627034, "lng": -123.0889261}}
{"name": "Rad Power Bikes (NO REMOTE)", "area": "Vancouver", "address": "West 5Th Ave", "onlineStore": "Yes", "url": "https://radpowerbikes.ca", "coordinates": {"lat": 49.268194, "lng": -123.2173156}}
{"name": "RB E-Bikes", "area": "Chilliwack", "address": "Unit 1 5478 Vedder Road", "onlineStore": "No", "url": "https://www.rbebikesrentalsales.wixsite.com/home", "coordinates": {"lat": 49.10154110000001, "lng": -121.9622789}}
{"name": "Reckless Bikes", "area": "Vancouver", "address": "1810 Fir St", "onlineStore": "No", "url": "https://reckles.ca", "coordinates": {"lat": 49.269552, "lng": -123.1406427}}
{"name": "Reckless Shipyards eBikes & More", "area": "North Vancouver", "address": "125 Victory Ship Way, Unit# 150", "onlineStore": "Yes", "url": "https://RecklessShipyards.ca", "coordinates": {"lat": 49.3102058, "lng": -123.078805}}
{"name": "Reckless The Bike Store Inc.", "area": "Vancouver", "address": "110 Davie Street", "onlineStore": "No", "url": "https://reckless.ca", "coordinates": {"lat": 49.2730826, "lng": -123.1204516}}
{"name": "Red Shreds Bike and Board Shed", "area": "Williams Lake", "address": "95 South First Ave", "onlineStore": "No", "url": "https://redshreds.com", "coordinates": {"lat": 48.9430832, "lng": -122.4472969}}
{"name": "Repair and Run Inc.", "area": "Vancouver", "address": "101-1926 W 4Th Ave", "onlineStore": "Yes", "url": "https://repairandrun.ca", "coordinates": {"lat": 49.26831680000001, "lng": -123.1495868}}
{"name": "Richmond E-Bike", "area": "Richmond", "address": "185-13988 Maycrest Way", "onlineStore": "Yes", "url": "https://richmondebike.com", "coordinates": {"lat": 49.17889779999999, "lng": -123.0697345}}
{"name": "Ride The Glide", "area": "Victoria", "address": "#130-777 Royal Oak Drive", "onlineStore": "Yes", "url": "https://ridetheglide.ca", "coordinates": {"lat": 48.4976616, "lng": -123.3799759}}
{"name": "Ridehub", "area": "Squamish", "address": "40330 Tantalus Rd", "onlineStore": "No", "url": "https://www.ridehub.ca", "coordinates": {"lat": 49.7394515, "lng": -123.1331071}}
{"name": "Riders Edge Suspension", "area": "Vernon", "address": "2705 45Th Ave", "onlineStore": "Yes", "url": "https://ridersedgesuspension.com", "coordinates": null}
{"name": "Riverside E-Ride Inc.", "area": "Kamloops", "address": "150 Victoria St West", "onlineStore": "Yes", "url": "https://riversideeride.ca", "coordinates": null}
{"name": "Rize Bikes", "area": "Richmond", "address": "2680 Shell Rd, Unit 113", "onlineStore": "Yes", "url": "https://rizebikes.ca", "coordinates": {"lat": 49.194399, "lng": -123.101705}}
{"name": "Rock City Cycles", "area": "Nanaimo", "address": "3700 Island Highway North", "onlineStore": "Yes", "url": "https://rockcitycycles.ca", "coordinates": {"lat": 49.2059999, "lng": -124.0109489}}
{"name": "Rocky Cycle", "area": "Surrey", "address": "7143 King George Boulevard", "onlineStore": "Yes", "url": "https://rockycycle.com", "coordinates": {"lat": 49.13248, "lng": -122.846114}}
{"name": "Ruckus Skis Boards and Bikes", "area": "Prince George", "address": "2629 Vance Road", "onlineStore": "No", "url": "https://ruckuspg.ca", "coordinates": {"lat": 49.0701875, "lng": -121.9579617}}
{"name": "Russ Hays Sidney", "area": "Sidney", "address": "2426A Bevan Ave", "onlineStore": "No", "url": "https://russhays.com", "coordinates": {"lat": 49.0419348, "lng": -122.309702}}
{"name": "Russ Hays the Bicycle Shop", "area": "Victoria", "address": "650 Hillside Ave", "onlineStore": "Yes", "url": "https://russhays.com", "coordinates": {"lat": 49.2329336, "lng": -122.8389926}}
{"name": "Seasons Outdoors", "area": "Grand Forks", "address": "131 Central Ave", "onlineStore": "Yes", "url": "https://seasonsoutdoors.ca", "coordinates": null}
{"name": "Selkirk Ski and Bike", "area": "Golden", "address": "1549 Kicking Horse Trail", "onlineStore": "No", "url": "https://selkirkskiandbike.com", "coordinates": {"lat": 49.2912645, "lng": -122.8457895}}
{"name": "Sessions Outdoor Sports Inc.", "area": "Osoyoos", "address": "7214 97Th Street", "onlineStore": "No", "url": "https://sessionsoutdoorsports.ca", "coordinates": {"lat": 53.50879, "lng": -113.4798163}}
{"name": "Sidesaddle Bike Shop", "area": "Vancouver", "address": "3469 Commercial Street", "onlineStore": "Yes", "url": "https://sidesaddlebikes.com", "coordinates": {"lat": 49.25371639999999, "lng": -123.0682255}}
{"name": "Simons Bike Shop", "area": "Vancouver", "address": "Unit 203- 345 Robson St", "onlineStore": "Yes", "url": "https://simonsbikeshop.com", "coordinates": {"lat": 49.2792891, "lng": -123.1159631}}
{"name": "Sixth Avenue Sports", "area": "Hope", "address": "835 6Th Avenue", "onlineStore": "No", "url": "https://cylex-canada.ca/company/sixth-avenue-sports-24261056.html", "coordinates": null}
{"name": "Skaha E Ride", "area": "Penticton", "address": "3012 Skaha Lake Rd", "onlineStore": "No", "url": "https://kelownaeride.com", "coordinates": {"lat": 49.4617339, "lng": -119.5874728}}
{"name": "Skookum Bike and Ski Revelstoke", "area": "Revelstoke", "address": "116 Mackenzie Ave", "onlineStore": "Yes", "url": "https://skookumgear.ca", "coordinates": {"lat": 50.9988317, "lng": -118.1948135}}
{"name": "Skyride Bike & Board Inc.", "area": "Vernon", "address": "4815 Silver Star Road", "onlineStore": "No", "url": "https://skyride.ca", "coordinates": {"lat": 48.8479863, "lng": -122.4341031}}
{"name": "Smith Creek Cycle", "area": "West Kelowna", "address": "2440 Main St", "onlineStore": "Yes", "url": "https://smithcreekcycle.ca", "coordinates": {"lat": 49.8298083, "lng": -119.6273981}}
{"name": "South Shore Cycle Ltd.", "area": "Delta", "address": "7917 120 Street", "onlineStore": "Yes", "url": "https://southshorecycle.ca", "coordinates": {"lat": 49.1472146, "lng": -122.891673}}
{"name": "Sovereign Cycle Inc.", "area": "West Kelowna", "address": "110-3480 Carrington Rd.", "onlineStore": "Yes", "url": "https://sovereigncycle.com", "coordinates": {"lat": 49.83850640000001, "lng": -119.6107787}}
{"name": "Specialized Squamish", "area": "Squamish", "address": "1101 Commercial Place #101", "onlineStore": "Yes", "url": "https://specializedsquamish.com", "coordinates": {"lat": 49.7232971, "lng": -123.156044}}
{"name": "Spoke Bike & Ski", "area": "Kamloops", "address": "194 Victoria St. West", "onlineStore": "Yes", "url": "https://spokenmotion.net", "coordinates": null}
{"name": "Sports Junkies", "area": "Vancouver", "address": "102 W Broadway", "onlineStore": "Yes", "url": "https://sportsjunkies.com/", "coordinates": {"lat": 49.2627835, "lng": -123.1071406}}
{"name": "Steed Cycles", "area": "North Vancouver", "address": "969 Marine Drive", "onlineStore": "Yes", "url": "https://steedcycles.com", "coordinates": {"lat": 49.3232107, "lng": -123.1011738}}
{"name": "Straight Line Bicycle and Ski Inc", "area": "Fernie", "address": "461C 2Nd Ave", "onlineStore": "Yes", "url": "https://straightlinefernie.com", "coordinates": "no latLng found for this address"}
{"name": "Straight Up Cycles", "area": "Victoria", "address": "4-3198 Quadra St", "onlineStore": "No", "url": "https://straightupcycles.ca", "coordinates": {"lat": 48.4487639, "lng": -123.3623036}}
{"name": "Summit Cycles and Sports Ltd.", "area": "Creston", "address": "1021 Canyon St.", "onlineStore": "Yes", "url": "https://summitcycles.ca", "coordinates": "no latLng found for this address"}
{"name": "Sun Country Cycle Ltd.", "area": "Coldstream", "address": "16500 Kalamalka Road", "onlineStore": "Yes", "url": "https://suncountrycycle.com", "coordinates": null}
{"name": "Suncoast Cycles", "area": "Powell River", "address": "9410 Highway 101", "onlineStore": "No", "url": "https://suncoastcycles.com", "coordinates": {"lat": 49.7721624, "lng": -124.4187755}}
{"name": "Sustainawave", "area": "Saanich", "address": "3604 Quadra Street", "onlineStore": "Yes", "url": "https://sustainawave.ca", "coordinates": null}
{"name": "Swicked Cycles Ltd.", "area": "Campbell River", "address": "1393 Spruce Street", "onlineStore": "No", "url": "https://swickedcyclesc.om", "coordinates": {"lat": 50.028848, "lng": -125.2703151}}
{"name": "Swisco Distributors - Phoenix Power Bikes", "area": "Maple Ridge", "address": "20172 113b Ave #14", "onlineStore": "No", "url": "https://phoenixpowerbikes.ca/home", "coordinates": {"lat": 49.2089741, "lng": -122.6625625}}
{"name": "Tantrum Ride Company", "area": "Revelstoke", "address": "Box 2190, 306 1St Street West", "onlineStore": "Yes", "url": "https://tantrumrideco.com", "coordinates": {"lat": 49.3180872, "lng": -123.0983497}}
{"name": "Taws Bike Garage", "area": "Powell River", "address": "4597 Marine Ave", "onlineStore": "Yes", "url": "https://tawsbikegarage.com", "coordinates": {"lat": 49.8403322, "lng": -124.5284134}}
{"name": "The Bike Barn", "area": "Penticton", "address": "300 Westminster Ave W", "onlineStore": "No", "url": "https://bikebarn.ca", "coordinates": {"lat": 42.9640618, "lng": -81.22486390000002}}
{"name": "The Bike Doctor", "area": "Vancouver", "address": "137 West Broadway", "onlineStore": "Yes", "url": "https://thebikedr.com", "coordinates": {"lat": 49.2632998, "lng": -123.1077431}}
{"name": "The Bike Zone", "area": "Surrey", "address": "2393 King George Boulevard", "onlineStore": "Yes", "url": "https://thebikezone.ca", "coordinates": {"lat": 49.0452079, "lng": -122.7947012}}
{"name": "The Fix Cyclery and Cafe Ltd.", "area": "Terrace", "address": "#102-2910 Tetrault Street", "onlineStore": "No", "url": "https://thefixcafe.bike", "coordinates": "no latLng found for this address"}
{"name": "The Guide's Hut", "area": "Fernie", "address": "671-2nd Ave", "onlineStore": "Yes", "url": "https://theguideshut.ca", "coordinates": {"lat": 44.5615041, "lng": -80.9415664}}
{"name": "The Jumping Slug Community Cyclery", "area": "Port Alberni", "address": "4282 10Th Ave", "onlineStore": "No", "url": "https://jumpingslug.com", "coordinates": {"lat": 49.2536907, "lng": -124.7981117}}
{"name": "The Lift Ski and Board", "area": "Port Moody", "address": "2-3011 Murray Street", "onlineStore": "Yes", "url": "https://theliftportmoody.ca/", "coordinates": {"lat": 49.27849, "lng": -122.84429}}
{"name": "The Lions Cyclery", "area": "Kelowna", "address": "1276 Ellis St", "onlineStore": "Yes", "url": "https://thelionscyclery.ca", "coordinates": {"lat": 48.7445817, "lng": -122.4718124}}
{"name": "The Sacred Ride", "area": "Nelson", "address": "213B Baker St", "onlineStore": "Yes", "url": "https://sacredride.ca", "coordinates": null}
{"name": "Tiga88", "area": "Richmond", "address": "#3265 4000 Number 3 Road", "onlineStore": "Yes", "url": "https://Tiga88.ca", "coordinates": {"lat": 49.18437, "lng": -123.135782}}
{"name": "Trail Bicycles", "area": "Courtenay", "address": "1170 Cliffe Avenue", "onlineStore": "Yes", "url": "https://trailbicycles.ca", "coordinates": {"lat": 49.687709, "lng": -124.9938581}}
{"name": "Trek Bicycle", "area": "Port Coquitlam", "address": "3590 Westwood St", "onlineStore": "Yes", "url": "https://trekbikes.com", "coordinates": {"lat": 49.2762032, "lng": -122.7898393}}
{"name": "Trek Bicycle Burnaby", "area": "Burnaby", "address": "5400 Kingsway", "onlineStore": "Yes", "url": "https://trekbikes.com", "coordinates": {"lat": 49.2238118, "lng": -122.9864}}
{"name": "Trek Bicycle Maple Ridge", "area": "Maple Ridge", "address": "21626 Lougheed Hwy", "onlineStore": "Yes", "url": "https://trekbikes.com", "coordinates": {"lat": 49.21671920000001, "lng": -122.622237}}
{"name": "Trek Bikes Catherine Street", "area": "Victoria", "address": "338 Catherine St", "onlineStore": "Yes", "url": "https://trekbikesvictoria.com", "coordinates": {"lat": 48.4298818, "lng": -123.3851927}}
{"name": "Trev Deeley Motorcycles", "area": "Vancouver", "address": "1875 Boundary Road", "onlineStore": "No", "url": "https://trevdeeley.com", "coordinates": {"lat": 49.2678909, "lng": -123.0250396}}
{"name": "Ukee Bikes", "area": "Ucluelet", "address": "1559 Imperial Lane", "onlineStore": "Yes", "url": "https://Ukeebike.com", "coordinates": null}
{"name": "Urban Machina Inc.", "area": "Vancouver", "address": "231 - 1868 Glen Drive", "onlineStore": "Yes", "url": "https://urbanmachina.com", "coordinates": {"lat": 49.26831929999999, "lng": -123.0806758}}
{"name": "Valley Moto Sport Kelowna (2008) Ltd", "area": "Kelowna", "address": "94 - 2489 Hwy 97 N", "onlineStore": "No", "url": "https://valleymotosport.com", "coordinates": {"lat": 49.8885771, "lng": -119.4217244}}
{"name": "Vedder Mountain Bike Co.", "area": "Chilliwack", "address": "102-5658 Vedder Road", "onlineStore": "Yes", "url": "https://vmbc.ca", "coordinates": {"lat": 49.1052778, "lng": -121.9611111}}
{"name": "Velocity Cycles Inc", "area": "Langley", "address": "209 20167 96 Ave", "onlineStore": "No", "url": "https://velocitycycles.ca", "coordinates": {"lat": 49.1775527, "lng": -122.6635479}}
{"name": "Velofix Holdings Ltd.", "area": "Mill Bay", "address": "Unit 1-825 Deloume Road", "onlineStore": "Yes", "url": "https://shopvelofix.com", "coordinates": {"lat": 48.6521864, "lng": -123.5613662}}
{"name": "Velolifestyle", "area": "Vancouver", "address": "1350 Nanaimo St", "onlineStore": "Yes", "url": "https://velolifestyle.com", "coordinates": {"lat": 49.2727762, "lng": -123.0562742}}
{"name": "Vernon E Ride", "area": "Vernon", "address": "2800 29 Street", "onlineStore": "No", "url": "https://kelownaeride.com", "coordinates": {"lat": 50.262574, "lng": -119.269471}}
{"name": "Vibe Ride e-Bikes & E-Scooters Store", "area": "Surrey", "address": "10242 152 St #102 ", "onlineStore": "Yes", "url": "https://viberide.ca", "coordinates": {"lat": 49.1884806, "lng": -122.8004326}}
{"name": "Victoria Electric Bikes", "area": "Victoria", "address": "1023 Cook St", "onlineStore": "No", "url": "https://victoriaelectricbikes.ca", "coordinates": {"lat": 48.4227639, "lng": -123.3539993}}
{"name": "Victorian Ebike BC Ltd.", "area": "Burnaby", "address": "#119-5589 Byrne Road", "onlineStore": "Yes", "url": "https://victorianebike.com", "coordinates": {"lat": 49.20127590000001, "lng": -122.9842929}}
{"name": "Village Bikes", "area": "Richmond", "address": "3891 Moncton St", "onlineStore": "Yes", "url": "https://village-bikes.ca", "coordinates": {"lat": 49.1254267, "lng": -123.1821126}}
{"name": "Vintage Iron Cycles", "area": "Vancouver", "address": "2212 Clark Drive", "onlineStore": "Yes", "url": "https://vintageironcycles.com", "coordinates": {"lat": 49.26490099999999, "lng": -123.0772108}}
{"name": "Vintage Iron Cycles Okanagan", "area": "Kelowna", "address": "1735 Dolphin Ave, Unit 134", "onlineStore": "Yes", "url": "https://vintageironcycles.com", "coordinates": {"lat": 49.8786639, "lng": -119.4597065}}
{"name": "Voltbike Electric Inc.", "area": "Port Coquitlam", "address": "1125 - 1579 Kingsway Ave", "onlineStore": "Yes", "url": "https://voltbike.com", "coordinates": {"lat": 49.2522214, "lng": -122.7575738}}
{"name": "Wenting's Cycle Shop Ltd.", "area": "Mission", "address": "33245 North Railway Ave", "onlineStore": "No", "url": "https://wentingscycle.com", "coordinates": {"lat": 49.1341975, "lng": -122.3035941}}
{"name": "West Point Cycles", "area": "Langley", "address": "100- 20445 62nd Avenue", "onlineStore": "Yes", "url": "https://westpointcycles.com", "coordinates": {"lat": 49.1154567, "lng": -122.6562416}}
{"name": "West Point Cycles - Kerrisdale", "area": "Vancouver", "address": "6069 West Boulevard", "onlineStore": "Yes", "url": "https://westpointcycles.com", "coordinates": {"lat": 49.231185, "lng": -123.1558513}}
{"name": "West Point Cycles - Main St", "area": "Vancouver", "address": "215 East 2nd Avenue", "onlineStore": "Yes", "url": "https://westpointcycles.com", "coordinates": {"lat": 49.2692426, "lng": -123.0999703}}
{"name": "West Point Cycles - West 10th", "area": "Vancouver", "address": "3771 West 10th Avenue", "onlineStore": "Yes", "url": "https://westpointcycles.com", "coordinates": {"lat": 49.2637114, "lng": -123.1872268}}
{"name": "Westshore Bicycles", "area": "Victoria", "address": "800 Kelly Rd Unit 104", "onlineStore": "Yes", "url": "https://westshorebikes.com", "coordinates": {"lat": 48.4385115, "lng": -123.505809}}
{"name": "Westside Scooters and More", "area": "West Kelowna", "address": "2409A Main Street", "onlineStore": "No", "url": "https://westsidescooters.ca", "coordinates": {"lat": 49.2457108, "lng": -123.101237}}
{"name": "Westside Sporting Goods Co.", "area": "Vancouver", "address": "1855 W 4th Avenue", "onlineStore": "Yes", "url": "https://westsidesports.ca", "coordinates": {"lat": 49.2682729, "lng": -123.1468785}}
{"name": "Whee Sports", "area": "Surrey", "address": "Unit 107 - 14333 104Th Ave", "onlineStore": "Yes", "url": "https://wheesports.ca", "coordinates": {"lat": 49.1917085, "lng": -122.8251193}}
{"name": "White Tide Sports", "area": "Campbell River", "address": "674 - 11th Avenue", "onlineStore": "No", "url": "https://whitetidesports.com", "coordinates": "no latLng found for this address"}
{"name": "Wild Bike", "area": "Terrace", "address": "102-4734 Lazelle Ave.", "onlineStore": "Yes", "url": "https://wildbike.ca", "coordinates": {"lat": 54.5180359, "lng": -128.5969988}}
{"name": "XOXO Bikes Inc", "area": "New Westminster", "address": "800 Boyd St", "onlineStore": "Yes", "url": "https://www.xoxobikes.com", "coordinates": {"lat": 49.19075429999999, "lng": -122.944928}}
{"name": "Zoom e-bikes", "area": "White Rock", "address": "15505 Marine Drive", "onlineStore": "No", "url": "https://www.zoome-bikes.com", "coordinates": {"lat": 49.0176056, "lng": -122.7927421}}
